[
  {
      "ACRES":1.08845408,
      "LOCATION":"W 117 St &amp; Morningside Ave",
      "Latitude":40.8063273,
      "Longitude":-73.9577683,
      "NAME":"Morningside Park",
      "1-f1":1,
      "3-f3":1,
      "4-f4":1,
      "5-f5":1,
      "6-f6":1,
      "8-f8":1,
      "9-f9":1,
      "10-f10":1,
      "11-f11":1,
      "12-f12":1
  },
  {
      "ACRES":1.09882736,
      "LOCATION":"Rochester Ave, Carroll St",
      "Latitude":40.6659789,
      "Longitude":-73.9286153,
      "NAME":"Arthur S. Somers Park",
      "1-f1":1,
      "2-f2":1,
      "3-f3":1,
      "4-f4":1,
      "6-f6":1,
      "8-f8":1,
      "9-f9":1,
      "10-f10":1,
      "11-f11":1,
      "12-f12":1
  },
  {
      "ACRES":1.10951923,
      "LOCATION":"Booth Memorial Ave &amp; 160 St",
      "Latitude":40.7420068,
      "Longitude":-73.8082377,
      "NAME":"Kissena Park",
      "1-f1":1,
      "3-f3":1,
      "7-f7":1,
      "8-f8":1,
      "11-f11":1
  },
  {
      "ACRES":1.17999822,
      "LOCATION":"147 Ave &amp; 184 St",
      "Latitude":40.6597108,
      "Longitude":-73.7636608,
      "NAME":"Springfield Park",
      "3-f3":1,
      "5-f5":1,
      "6-f6":1,
      "7-f7":1,
      "8-f8":1,
      "11-f11":1,
      "12-f12":1
  },
  {
      "ACRES":1.18297894,
      "LOCATION":"Brookville Blvd &amp; 143 Ave",
      "Latitude":40.6634385,
      "Longitude":-73.7407845,
      "NAME":"Brookville Park",
      "1-f1":1,
      "11-f11":1
  },
  {
      "ACRES":1.29495963,
      "LOCATION":"Sheridan Exwy, Bronx River, S/o E 174 St Bridge",
      "Latitude":40.8260813,
      "Longitude":-73.8861735,
      "NAME":"Starlight Park",
      "1-f1":1,
      "7-f7":1,
      "11-f11":1,
      "12-f12":1
  },
  {
      "ACRES":1.31005807,
      "LOCATION":"Seaview Ave, E 80 St, Paerdegat Ave N",
      "Latitude":40.5851367,
      "Longitude":-74.0893236,
      "NAME":"Canarsie Park",
      "1-f1":1,
      "3-f3":1,
      "5-f5":1,
      "11-f11":1
  },
  {
      "ACRES":1.38013303,
      "LOCATION":"W 129 St &amp; St Nicholas Terr",
      "Latitude":40.813549,
      "Longitude":-73.9513212,
      "NAME":"St. Nicholas Park",
      "1-f1":1,
      "3-f3":1,
      "8-f8":1,
      "12-f12":1
  },
  {
      "ACRES":1.38483504,
      "LOCATION":"5 Ave Btw W 58 and W 60 Sts",
      "Latitude":40.7744146,
      "Longitude":-73.9656177,
      "NAME":"Central Park",
      "1-f1":1,
      "3-f3":1,
      "4-f4":1,
      "5-f5":1,
      "8-f8":1,
      "9-f9":1,
      "10-f10":1,
      "12-f12":1
  },
  {
      "ACRES":1.51921127,
      "LOCATION":"East 84 St &amp; East End Ave",
      "Latitude":40.7736224,
      "Longitude":-73.9457372,
      "NAME":"Carl Schurz Park",
      "1-f1":1,
      "3-f3":1,
      "4-f4":1,
      "8-f8":1,
      "12-f12":1
  },
  {
      "ACRES":1.52169478,
      "LOCATION":"Beach 32 St &amp; Beach Channel Drive",
      "Latitude":40.5987494,
      "Longitude":-73.7660029,
      "NAME":"Bayswater Park",
      "3-f3":1,
      "11-f11":1,
      "12-f12":1
  },
  {
      "ACRES":1.65257952,
      "LOCATION":"Lorimer St, Driggs Ave",
      "Latitude":40.7217156,
      "Longitude":-73.9506335,
      "NAME":"McCarren Park",
      "3-f3":1,
      "5-f5":1,
      "6-f6":1,
      "7-f7":1,
      "10-f10":1,
      "11-f11":1,
      "12-f12":1
  },
  {
      "ACRES":2.14679065,
      "LOCATION":"B 54 St &amp; Almeda Ave",
      "Latitude":40.5975183,
      "Longitude":-73.7882769,
      "NAME":"Rockaway Community Park",
      "5-f5":1,
      "10-f10":1
  },
  {
      "ACRES":2.27347393,
      "LOCATION":"Bay 46 &amp; Cropsey Ave",
      "Latitude":40.5878716,
      "Longitude":-73.9895663,
      "NAME":"Calvert Vaux Park",
      "2-f2":1,
      "3-f3":1,
      "11-f11":1
  },
  {
      "ACRES":2.47033226,
      "LOCATION":"W 16 St, W 19 St Parking Lot, Boardwalk",
      "Latitude":40.5925534,
      "Longitude":-73.3867469,
      "NAME":"Steeplechase Park",
      "6-f6":1
  },
  {
      "ACRES":3.74301506,
      "LOCATION":"Sidewalk And Lawns Along Payson Ave And Dyckman St",
      "Latitude":40.8667472,
      "Longitude":-73.9287258,
      "NAME":"Inwood Hill Park",
      "1-f1":1,
      "2-f2":1,
      "3-f3":1,
      "5-f5":1
  },
  {
      "ACRES":4.25159517,
      "LOCATION":"Btw N + S Juniper Blvds, 80th St, + The Path Fr 78th St (on N) To 77th Pl (on S)",
      "Latitude":40.6720704,
      "Longitude":-74.9120852,
      "NAME":"Juniper Valley Park",
      "3-f3":1,
      "5-f5":1,
      "6-f6":1,
      "7-f7":1,
      "8-f8":1,
      "11-f11":1
  },
  {
      "ACRES":4.33374866,
      "LOCATION":"Vermont St, Linden Blvd, Gershwin JHS, Fence Betw Football Field &amp; Courts",
      "Latitude":40.6598767,
      "Longitude":-73.8854448,
      "NAME":"Linden Park",
      "4-f4":1,
      "8-f8":1,
      "9-f9":1
  },
  {
      "ACRES":5.87594793,
      "LOCATION":"Madison Ave, btwn 124th St And 120th St Until 5th Ave, Not Including Hillside",
      "Latitude":40.6022315,
      "Longitude":-74.8789406,
      "NAME":"Marcus Garvey Park",
      "1-f1":1,
      "2-f2":1,
      "3-f3":1,
      "5-f5":1
  },
  {
      "ACRES":6.16776942,
      "LOCATION":"Plaza St, PPW to Carrol St, Meadowport Arch, Flatbush Av to Endale Arch",
      "Latitude":40.6707754,
      "Longitude":-73.9706797,
      "NAME":"Prospect Park",
      "2-f2":1,
      "3-f3":1,
      "4-f4":1,
      "5-f5":1,
      "8-f8":1,
      "9-f9":1
  },
  {
      "ACRES":6.28671831,
      "LOCATION":"Schley Ave, Hutchinson River Pkwy Service Rd, to Ballfields",
      "Latitude":40.816341,
      "Longitude":-73.836961,
      "NAME":"Ferry Point Park",
      "3-f3":1,
      "6-f6":1,
      "7-f7":1,
      "9-f9":1
  },
  {
      "ACRES":6.78656566,
      "LOCATION":"Harlem River Dr From E 131 St To W 145 St",
      "Latitude":40.8243219,
      "Longitude":-73.945426,
      "NAME":"Harlem River Park",
      "3-f3":1,
      "6-f6":1,
      "8-f8":1,
      "11-f11":1
  },
  {
      "ACRES":6.83557386,
      "LOCATION":"Mt Eden Pkwy, Topping Av, Clay Av, Claremont Pkwy (Including Sloped Nat. Area)",
      "Latitude":40.8426311,
      "Longitude":-73.9059645,
      "NAME":"Claremont Park",
      "3-f3":1,
      "8-f8":1,
      "9-f9":1,
      "10-f10":1
  },
  {
      "ACRES":7.92951427,
      "LOCATION":"125th Ave, 119th Ave, 155th St, middle Of Lake",
      "Latitude":40.6865366,
      "Longitude":-73.7917348,
      "NAME":"Baisley Pond Park",
      "3-f3":1,
      "11-f11":1,
      "12-f12":1
  },
  {
      "ACRES":9.288449,
      "LOCATION":"S/o Gravesend Bay, SE/o Path, N/o Neptune Ave",
      "Latitude":40.5792604,
      "Longitude":-73.9819541,
      "NAME":"Kaiser Park",
      "2-f2":1,
      "3-f3":1,
      "9-f9":1,
      "10-f10":1
  },
  {
      "ACRES":9.58571045,
      "LOCATION":"Hudson River, Palisade Ave From Approx W 246th St To Spaulding La",
      "Latitude":40.7653879,
      "Longitude":-74.0306437,
      "NAME":"Riverdale Park",
      "3-f3":1
  },
  {
      "ACRES":12.66603731,
      "LOCATION":"232 St, Springfield Ln, 148 Ave",
      "Latitude":40.6014831,
      "Longitude":-72.589811,
      "NAME":"Idlewild Park",
      "7-f7":1,
      "9-f9":1
  },
  {
      "ACRES":13.05540412,
      "LOCATION":"Point Breeze Pl, Baywater Ct, Edgewater Rd to Bay 28 St",
      "Latitude":40.6136292,
      "Longitude":-73.7674088,
      "NAME":"Jamaica Bay Park",
      "2-f2":1,
      "4-f4":1
  },
  {
      "ACRES":15.42802693,
      "LOCATION":"Bergen Ave btw Ave U and Ave V",
      "Latitude":40.7174588,
      "Longitude":-74.0769405,
      "NAME":"Paerdegat Basin Park",
      "3-f3":1,
      "5-f5":1,
      "6-f6":1,
      "8-f8":1,
      "11-f11":1,
      "12-f12":1
  },
  {
      "ACRES":16.3972486,
      "LOCATION":"S/o Hell Gate Queens Span, E/o Odyssey House Complex, N/o Of Wards Meadow Loop",
      "Latitude":40.782254,
      "Longitude":-73.9296607,
      "NAME":"Wards Island Park",
      "11-f11":1
  },
  {
      "ACRES":19.51969927,
      "LOCATION":"Hylan Blvd, Satterlee St, Shore Rd",
      "Latitude":40.5027909,
      "Longitude":-74.2518454,
      "NAME":"Conference House Park",
      "7-f7":1,
      "11-f11":1,
      "12-f12":1
  },
  {
      "ACRES":20.43496081,
      "LOCATION":"Isabella Ave -",
      "Latitude":40.7386129,
      "Longitude":-74.2223433,
      "NAME":"Great Kills Park",
      "3-f3":1,
      "5-f5":1,
      "11-f11":1
  },
  {
      "ACRES":21.42324876,
      "LOCATION":"Behind mall along Bricktown Way, developed portion and trails to the west",
      "Latitude":40.5296085,
      "Longitude":-74.230294,
      "NAME":"Fairview Park",
      "3-f3":1,
      "8-f8":1,
      "12-f12":1
  },
  {
      "ACRES":21.50222071,
      "LOCATION":"Brighton Ave, Portland Pl, Goodhue Center Driveway, Penbroke Ave (dead end)",
      "Latitude":40.635235,
      "Longitude":-74.096634,
      "NAME":"Goodhue Park",
      "3-f3":1,
      "4-f4":1,
      "5-f5":1,
      "8-f8":1,
      "9-f9":1,
      "10-f10":1,
      "12-f12":1
  },
  {
      "ACRES":32.68646408,
      "LOCATION":"Vandalia Ave, Gateway Dr, Erskine St, Belt Pkwy",
      "Latitude":40.65287,
      "Longitude":-73.866997,
      "NAME":"Spring Creek Park",
      "3-f3":1,
      "4-f4":1,
      "8-f8":1,
      "12-f12":1
  },
  {
      "ACRES":34.90753391,
      "LOCATION":"6716 Amboy Rd to 6844 Amboy Rd (unmapped Calcutta St) and S to Eastwood Ave line",
      "Latitude":40.5187518,
      "Longitude":-74.2263469,
      "NAME":"Long Pond Park",
      "3-f3":1,
      "11-f11":1,
      "12-f12":1
  },
  {
      "ACRES":55.00795739,
      "LOCATION":"Quintard St and Olympia Blvd east and south to athletic complex",
      "Latitude":40.5891355,
      "Longitude":-74.0785479,
      "NAME":"Ocean Breeze Park",
      "3-f3":1,
      "5-f5":1,
      "6-f6":1,
      "7-f7":1,
      "10-f10":1,
      "11-f11":1,
      "12-f12":1
  },
  {
      "ACRES":57.71540699,
      "LOCATION":"Kazimiroff, Mosholu, Duncomb, Metro N Rr Tracks, Bronx River Pkwy",
      "Latitude":40.8677518,
      "Longitude":-73.8795629,
      "NAME":"Bronx Park",
      "8-f8":1,
      "12-f12":1
  },
  {
      "ACRES":57.73172659,
      "LOCATION":"Victory Blvd, Revere St, SW of Control Bldg, Bridge",
      "Latitude":40.6118459,
      "Longitude":-74.1384376,
      "NAME":"Silver Lake Park",
      "4-f4":1,
      "6-f6":1,
      "8-f8":1
  },
  {
      "ACRES":68.12980238,
      "LOCATION":"Highland Blvd, Vermont Pl, Jackie Robinson Pkwy, National Cemetery",
      "Latitude":40.6852738,
      "Longitude":-73.8881729,
      "NAME":"Highland Park",
      "2-f2":1,
      "9-f9":1
  },
  {
      "ACRES":70.18472796,
      "LOCATION":"Union Turnpike, Grand Central Pkwy, Francis Lewis Blvd, Clearview Exwy",
      "Latitude":40.779755,
      "Longitude":-73.7848564,
      "NAME":"Cunningham Park",
      "4-f4":1,
      "5-f5":1,
      "6-f6":1,
      "9-f9":1,
      "10-f10":1,
      "11-f11":1
  },
  {
      "ACRES":75.45963198,
      "LOCATION":"Clove Rd., Victory Blvd.",
      "Latitude":40.6164058,
      "Longitude":-74.1035902,
      "NAME":"Clove Lakes Park",
      "5-f5":1,
      "7-f7":1,
      "9-f9":1
  },
  {
      "ACRES":80.53180528,
      "LOCATION":"Ramona Ave, Bloomingdale Rd, Maguire Ave, Drumgoole Rd",
      "Latitude":40.5294697,
      "Longitude":-74.2110079,
      "NAME":"Bloomingdale Park",
      "7-f7":1,
      "12-f12":1
  },
  {
      "ACRES":81.52033252,
      "LOCATION":"Arthur Kill Rd, Ilyssa Way, Dividing Line Fr Oak Ln To Houses At Arthur Kill",
      "Latitude":40.5003836,
      "Longitude":-74.2584787,
      "NAME":"Arden Woods",
      "4-f4":1,
      "6-f6":1,
      "7-f7":1,
      "8-f8":1,
      "11-f11":1,
      "12-f12":1
  },
  {
      "ACRES":81.62725445,
      "LOCATION":"Natural area and fields from Gotham Ave to south end of Gerritsen Ave .",
      "Latitude":40.5981691,
      "Longitude":-73.9311207,
      "NAME":"Marine Park",
      "1-f1":1,
      "3-f3":1,
      "4-f4":1,
      "5-f5":1,
      "6-f6":1,
      "9-f9":1,
      "10-f10":1
  },
  {
      "ACRES":115.9684467,
      "LOCATION":"Hylan Blvd, Luten Ave, Eylandt St, Chisholm St, Holten Ave And SIRR",
      "Latitude":40.5198948,
      "Longitude":-74.1950782,
      "NAME":"Wolfe's Pond Park",
      "2-f2":1,
      "3-f3":1,
      "4-f4":1,
      "8-f8":1
  },
  {
      "ACRES":119.0415816,
      "LOCATION":"(e) Long Island Railroad To (sw) Myrtle Ave To (se) East Main Dr.",
      "Latitude":40.789142,
      "Longitude":-73.134961,
      "NAME":"Forest Park",
      "5-f5":1,
      "9-f9":1,
      "10-f10":1
  },
  {
      "ACRES":120.2220083,
      "LOCATION":"Amboy Rd, Barclay Av, Raritan Bay, Poillon Ave",
      "Latitude":40.5378754,
      "Longitude":-74.1741264,
      "NAME":"Blue Heron Park",
      "1-f1":1,
      "3-f3":1,
      "8-f8":1,
      "11-f11":1,
      "12-f12":1
  },
  {
      "ACRES":133.9216624,
      "LOCATION":"Forest Ave To Old Croton Aqueduct Trail To Major Deegan Expwy",
      "Latitude":40.9094586,
      "Longitude":-73.8818894,
      "NAME":"Van Cortlandt Park",
      "1-f1":1,
      "6-f6":1,
      "10-f10":1
  },
  {
      "ACRES":136.4847219,
      "LOCATION":"Arthur Kill Rd btw Colon Ave and Franklin Lane",
      "Latitude":40.5558459,
      "Longitude":-74.2016859,
      "NAME":"Brookfield Park",
      "1-f1":1,
      "2-f2":1,
      "3-f3":1,
      "8-f8":1
  },
  {
      "ACRES":144.8718616,
      "LOCATION":"(e) Long Island Sound To (w) Lagoon",
      "Latitude":40.789142,
      "Longitude":-73.134961,
      "NAME":"Pelham Bay Park",
      "1-f1":1,
      "2-f2":1,
      "6 -f6":1,
      "10-f10":1
  }
]